[{"type": "location", "subType": "POINT_OF_INTEREST", "id": "9CB40CB5D0", "self": {"href": "https://test.api.amadeus.com/v1/reference-data/locations/pois/9CB40CB5D0", "methods": ["GET"]}, "geoCode": {"latitude": 41.39165, "longitude": 2.164772}, "name": "Casa Batll\u00f3", "category": "SIGHTS", "rank": 5, "tags": ["sightseeing", "sights", "museum", "landmark", "tourguide", "restaurant", "attraction", "activities", "commercialplace", "shopping", "souvenir"]}, {"type": "location", "subType": "POINT_OF_INTEREST", "id": "FE0693CF7A", "self": {"href": "https://test.api.amadeus.com/v1/reference-data/locations/pois/FE0693CF7A", "methods": ["GET"]}, "geoCode": {"latitude": 41.38504, "longitude": 2.167985}, "name": "Teresa Carles", "category": "RESTAURANT", "rank": 15, "tags": ["restaurant", "vegetarian", "market", "bar", "liquor", "professionalservices", "transport", "health&medical", "sightseeing", "commercialplace"]}, {"type": "location", "subType": "POINT_OF_INTEREST", "id": "3EF139D861", "self": {"href": "https://test.api.amadeus.com/v1/reference-data/locations/pois/3EF139D861", "methods": ["GET"]}, "geoCode": {"latitude": 41.38827, "longitude": 2.161604}, "name": "Brunch & Cake", "category": "RESTAURANT", "rank": 30, "tags": ["vegetarian", "restaurant", "breakfast", "shopping", "bakery", "transport", "patio", "garden"]}, {"type": "location", "subType": "POINT_OF_INTEREST", "id": "AB3F122E3E", "self": {"href": "https://test.api.amadeus.com/v1/reference-data/locations/pois/AB3F122E3E", "methods": ["GET"]}, "geoCode": {"latitude": 41.392376, "longitude": 2.160919}, "name": "Cervecer\u00eda Catalana", "category": "RESTAURANT", "rank": 30, "tags": ["restaurant", "tapas", "sightseeing", "traditionalcuisine", "bar", "activities", "commercialplace"]}, {"type": "location", "subType": "POINT_OF_INTEREST", "id": "2F46E7E9A3", "self": {"href": "https://test.api.amadeus.com/v1/reference-data/locations/pois/2F46E7E9A3", "methods": ["GET"]}, "geoCode": {"latitude": 41.38874, "longitude": 2.166787}, "name": "Ciudad Condal", "category": "RESTAURANT", "rank": 50, "tags": ["restaurant", "tapas", "shopping", "bar"]}, {"type": "location", "subType": "POINT_OF_INTEREST", "id": "9BCF9ABBC7", "self": {"href": "https://test.api.amadeus.com/v1/reference-data/locations/pois/9BCF9ABBC7", "methods": ["GET"]}, "geoCode": {"latitude": 41.38509, "longitude": 2.16559}, "name": "Flax & Kale", "category": "RESTAURANT", "rank": 100, "tags": ["restaurant", "breakfast", "vegetarian", "sightseeing", "health&medical", "bar", "professionalservices", "shopping", "cheap"]}, {"type": "location", "subType": "POINT_OF_INTEREST", "id": "529ABDC02F", "self": {"href": "https://test.api.amadeus.com/v1/reference-data/locations/pois/529ABDC02F", "methods": ["GET"]}, "geoCode": {"latitude": 41.38691, "longitude": 2.16112}, "name": "La Flauta", "category": "RESTAURANT", "rank": 100, "tags": ["restaurant", "tapas", "bar"]}, {"type": "location", "subType": "POINT_OF_INTEREST", "id": "5F1CED3994", "self": {"href": "https://test.api.amadeus.com/v1/reference-data/locations/pois/5F1CED3994", "methods": ["GET"]}, "geoCode": {"latitude": 41.39148, "longitude": 2.164981}, "name": "Casa Amatller", "category": "SIGHTS", "rank": 100, "tags": ["sightseeing", "sights", "museum", "landmark", "restaurant", "tourguide", "historicplace", "historic", "attraction", "commercialplace", "activities", "shopping", "events"]}, {"type": "location", "subType": "POINT_OF_INTEREST", "id": "30601A1A90", "self": {"href": "https://test.api.amadeus.com/v1/reference-data/locations/pois/30601A1A90", "methods": ["GET"]}, "geoCode": {"latitude": 41.390785, "longitude": 2.167414}, "name": "Tapas 24", "category": "RESTAURANT", "rank": 100, "tags": ["restaurant", "tapas", "traditionalcuisine", "sightseeing", "commercialplace", "transport", "patio", "garden", "activities", "bar"]}, {"type": "location", "subType": "POINT_OF_INTEREST", "id": "06D674CE74", "self": {"href": "https://test.api.amadeus.com/v1/reference-data/locations/pois/06D674CE74", "methods": ["GET"]}, "geoCode": {"latitude": 41.3911, "longitude": 2.15112}, "name": "Maitea", "category": "RESTAURANT", "rank": 100, "tags": ["restaurant", "tapas", "bar", "sightseeing", "commercialplace", "seafood"]}]