[{"type": "location", "subType": "POINT_OF_INTEREST", "id": "4E3F25B801", "self": {"href": "https://test.api.amadeus.com/v1/reference-data/locations/pois/4E3F25B801", "methods": ["GET"]}, "geoCode": {"latitude": 59.911587, "longitude": 10.730682}, "name": "Nobel Peace Center", "category": "SIGHTS", "rank": 5, "tags": ["museum", "sightseeing", "tourguide", "sights", "attraction", "commercialplace", "activities"]}, {"type": "location", "subType": "POINT_OF_INTEREST", "id": "45111F2BA0", "self": {"href": "https://test.api.amadeus.com/v1/reference-data/locations/pois/45111F2BA0", "methods": ["GET"]}, "geoCode": {"latitude": 59.910458, "longitude": 10.76028}, "name": "Maaemo", "category": "RESTAURANT", "rank": 5, "tags": ["restaurant", "sightseeing", "commercialplace", "regionalcuisine"]}, {"type": "location", "subType": "POINT_OF_INTEREST", "id": "CD61577422", "self": {"href": "https://test.api.amadeus.com/v1/reference-data/locations/pois/CD61577422", "methods": ["GET"]}, "geoCode": {"latitude": 59.90749, "longitude": 10.753128}, "name": "Oslo Opera House", "category": "SIGHTS", "rank": 5, "tags": ["sightseeing", "operahouse", "restaurant", "events", "activities", "commercialplace", "square", "sights"]}, {"type": "location", "subType": "POINT_OF_INTEREST", "id": "348A5F7BB4", "self": {"href": "https://test.api.amadeus.com/v1/reference-data/locations/pois/348A5F7BB4", "methods": ["GET"]}, "geoCode": {"latitude": 59.913, "longitude": 10.73458}, "name": "Oslo City Hall", "category": "SIGHTS", "rank": 10, "tags": ["landmark", "tourguide", "sightseeing", "restaurant", "cityhall", "attraction", "commercialplace", "activities"]}, {"type": "location", "subType": "POINT_OF_INTEREST", "id": "6AE8129281", "self": {"href": "https://test.api.amadeus.com/v1/reference-data/locations/pois/6AE8129281", "methods": ["GET"]}, "geoCode": {"latitude": 59.91349, "longitude": 10.734946}, "name": "Amundsen Bryggeri & Spiseri", "category": "RESTAURANT", "rank": 10, "tags": ["restaurant", "gastropub", "pub", "activities", "brewery", "bar", "sightseeing", "commercialplace", "professionalservices", "events"]}, {"type": "location", "subType": "POINT_OF_INTEREST", "id": "C1B0D8E9E8", "self": {"href": "https://test.api.amadeus.com/v1/reference-data/locations/pois/C1B0D8E9E8", "methods": ["GET"]}, "geoCode": {"latitude": 59.91718, "longitude": 10.739945}, "name": "Fuglen", "category": "NIGHTLIFE", "rank": 15, "tags": ["bar", "sightseeing", "shopping", "restaurant", "club", "fashion", "home", "transport", "patio", "garden", "events", "health&medical"]}, {"type": "location", "subType": "POINT_OF_INTEREST", "id": "DA3EC7D5EB", "self": {"href": "https://test.api.amadeus.com/v1/reference-data/locations/pois/DA3EC7D5EB", "methods": ["GET"]}, "geoCode": {"latitude": 59.92009, "longitude": 10.7528}, "name": "Bl\u00e5", "category": "NIGHTLIFE", "rank": 30, "tags": ["club", "bar", "musicvenue", "nightclub", "nightlife", "events", "sightseeing", "activities", "dance", "liquor", "garden", "commercialplace"]}, {"type": "location", "subType": "POINT_OF_INTEREST", "id": "C9C345C300", "self": {"href": "https://test.api.amadeus.com/v1/reference-data/locations/pois/C9C345C300", "methods": ["GET"]}, "geoCode": {"latitude": 59.912586, "longitude": 10.751722}, "name": "Oslo City", "category": "SHOPPING", "rank": 30, "tags": ["mall", "restaurant", "shopping", "attraction", "activities", "tourguide", "gasstation"]}, {"type": "location", "subType": "POINT_OF_INTEREST", "id": "1DA3559400", "self": {"href": "https://test.api.amadeus.com/v1/reference-data/locations/pois/1DA3559400", "methods": ["GET"]}, "geoCode": {"latitude": 59.917572, "longitude": 10.754201}, "name": "Caf\u00e9 Sara", "category": "RESTAURANT", "rank": 30, "tags": ["restaurant", "sightseeing", "pub", "bar", "activities"]}, {"type": "location", "subType": "POINT_OF_INTEREST", "id": "71490F55D4", "self": {"href": "https://test.api.amadeus.com/v1/reference-data/locations/pois/71490F55D4", "methods": ["GET"]}, "geoCode": {"latitude": 59.918728, "longitude": 10.758418}, "name": "Delicatessen Gr\u00fcnerl\u00f8kka", "category": "RESTAURANT", "rank": 30, "tags": ["restaurant", "tapas", "bar", "sightseeing", "commercialplace", "transport"]}]